[
  {
    "id": "3617",
    "name": "L9 platform",
    "lat": 53.616669000000115,
    "lon": 4.966667000001658,
    "x": 630087.998728811,
    "y": 5942671.15254043,
    "datasets": {
      "RWS_OFFICIAL": {
        "location_id": "L9"
      }
    }
  },
  {
    "id": "8700",
    "name": "Oosterschelde 4",
    "lat": 51.655880000000046,
    "lon": 3.693954000000001,
    "x": 548004.476484997,
    "y": 5722993.34058284,
    "datasets": {
      "RWS_OFFICIAL": {
        "location_id": "OS4"
      }
    }
  },
  {
    "id": "5392",
    "name": "AWG platform",
    "lat": 53.4916400000037,
    "lon": 5.941140000012515,
    "x": 695106.58080376,
    "y": 5930990.21887629,
    "datasets": {
      "RWS_OFFICIAL": {
        "location_id": "AWG"
      }
    }
  },
  {
    "id": "9057",
    "name": "F3 platform",
    "lat": 54.849994999999936,
    "lon": 4.716658000000711,
    "x": 610215.841475144,
    "y": 6079449.4135779,
    "datasets": {
      "RWS_OFFICIAL": {
        "location_id": "F3"
      }
    }
  },
  {
    "id": "2924",
    "name": "Wierumergronden",
    "lat": 53.51582800000393,
    "lon": 5.958261000012834,
    "x": 696130.296598613,
    "y": 5933727.14138876,
    "datasets": {
      "RWS_OFFICIAL": {
        "location_id": "WIER"
      }
    }
  },
  {
    "id": "7832",
    "name": "Nieuw Beerta",
    "lat": 53.19442000006016,
    "lon": 7.149280000074765,
    "x": 777138.895253111,
    "y": 5901939.3205997,
    "datasets": {
      "RWS_OFFICIAL": {
        "location_id": "NIBE"
      }
    }
  },
  {
    "id": "1660",
    "name": "Maeslantkering geleidetor",
    "lat": 51.95399900000011,
    "lon": 4.1600460000001345,
    "x": 579718.089134798,
    "y": 5756557.4430131,
    "datasets": {
      "RWS_OFFICIAL": {
        "location_id": "MLKZ"
      }
    }
  },
  {
    "id": "3290",
    "name": "Terneuzen Westsluis",
    "lat": 51.32778400000012,
    "lon": 3.8162160000000243,
    "x": 556868.640270215,
    "y": 5686592.99245246,
    "datasets": {
      "RWS_OFFICIAL": {
        "location_id": "TNWS"
      }
    }
  },
  {
    "id": "0727",
    "name": "J6 platform",
    "lat": 53.81663199999994,
    "lon": 2.9500099999999967,
    "x": 496708.794769268,
    "y": 5963121.52220118,
    "datasets": {
      "RWS_OFFICIAL": {
        "location_id": "J6"
      }
    }
  },
  {
    "id": "4883",
    "name": "Platform J6",
    "lat": 53.816632419275315,
    "lon": 2.950009502645602,
    "x": 496708.762057664,
    "y": 5963121.56887158,
    "datasets": {
      "RWS_OFFICIAL": {
        "location_id": "J6"
      }
    }
  },
  {
    "id": "3318",
    "name": "Nelson platform1",
    "lat": 57.66168999999975,
    "lon": 1.144999999999313,
    "x": 389328.47782212,
    "y": 6392559.95957432,
    "datasets": {
      "RWS_OFFICIAL": {
        "location_id": "NLS1"
      }
    }
  },
  {
    "id": "6327",
    "name": "Stavenisse",
    "lat": 51.5954060000001,
    "lon": 4.006012000000079,
    "x": 569683.338543064,
    "y": 5716519.09441382,
    "datasets": {
      "RWS_OFFICIAL": {
        "location_id": "STAV"
      }
    }
  },
  {
    "id": "4806",
    "name": "A12 platform",
    "lat": 55.4166629999998,
    "lon": 3.816671000000001,
    "x": 551697.869815018,
    "y": 6141462.20430188,
    "datasets": {
      "RWS_OFFICIAL": {
        "location_id": "A12"
      }
    }
  },
  {
    "id": "7052",
    "name": "Platform A12",
    "lat": 55.383333333333084,
    "lon": 3.8000000000000087,
    "x": 550685.198107023,
    "y": 6137740.93724544,
    "datasets": {
      "RWS_OFFICIAL": {
        "location_id": "A12"
      }
    }
  },
  {
    "id": "5098",
    "name": "Brouwershavense Gat 2",
    "lat": 51.76652700000006,
    "lon": 3.621747000000003,
    "x": 542904.767180805,
    "y": 5735254.0584802,
    "datasets": {
      "RWS_OFFICIAL": {
        "location_id": "BG2"
      }
    }
  },
  {
    "id": "7358",
    "name": "Stavoren",
    "lat": 52.8966100000008,
    "lon": 5.383330000004719,
    "x": 660315.425544258,
    "y": 5863429.28668385,
    "datasets": {
      "RWS_OFFICIAL": {
        "location_id": "STVO"
      }
    }
  },
  {
    "id": "6462",
    "name": "Wilhelminadorp",
    "lat": 51.53333000000007,
    "lon": 3.90000000000004,
    "x": 562425.310188276,
    "y": 5709519.81187638,
    "datasets": {
      "RWS_OFFICIAL": {
        "location_id": "WILH"
      }
    }
  },
  {
    "id": "6353",
    "name": "Bergsediepsluis wind",
    "lat": 51.51019700000009,
    "lon": 4.173901000000157,
    "x": 581464.221684069,
    "y": 5707216.45883811,
    "datasets": {
      "RWS_OFFICIAL": {
        "location_id": "BDWI"
      }
    }
  },
  {
    "id": "5503",
    "name": "Hansweert wind",
    "lat": 51.44577000000008,
    "lon": 3.9975180000000674,
    "x": 569321.823604248,
    "y": 5699870.02269172,
    "datasets": {
      "RWS_OFFICIAL": {
        "location_id": "HAWI"
      }
    }
  },
  {
    "id": "8306",
    "name": "Huibertgat",
    "lat": 53.57375000001183,
    "lon": 6.398433000025506,
    "x": 724996.335864394,
    "y": 5941470.2703589,
    "datasets": {
      "RWS_OFFICIAL": {
        "location_id": "HUB1"
      }
    }
  },
  {
    "id": "5260",
    "name": "Rotterdam Geulhaven",
    "lat": 51.88862600000009,
    "lon": 4.313755000000273,
    "x": 590411.766154589,
    "y": 5749466.62406122,
    "datasets": {
      "RWS_OFFICIAL": {
        "location_id": "ROT2"
      }
    }
  },
  {
    "id": "6901",
    "name": "Markermeer Midden -b",
    "lat": 52.53213900000051,
    "lon": 5.2311940000035335,
    "x": 651339.91252293,
    "y": 5822566.22032937,
    "datasets": {
      "RWS_OFFICIAL": {
        "location_id": "FL42b"
      }
    }
  },
  {
    "id": "8609",
    "name": "D15 platform",
    "lat": 54.316662999999934,
    "lon": 2.9333329999999966,
    "x": 495663.241516565,
    "y": 6018756.72170369,
    "datasets": {
      "RWS_OFFICIAL": {
        "location_id": "D15"
      }
    }
  },
  {
    "id": "3237",
    "name": "Platform D15-A",
    "lat": 54.32566666666657,
    "lon": 2.935750000000001,
    "x": 495821.3824242,
    "y": 6019758.38164838,
    "datasets": {
      "RWS_OFFICIAL": {
        "location_id": "D15"
      }
    }
  },
  {
    "id": "6823",
    "name": "Brent Charlie Platform",
    "lat": 61.09610999999952,
    "lon": 1.721389999999954,
    "x": 431057.398943666,
    "y": 6774166.0702699,
    "datasets": {
      "RWS_OFFICIAL": {
        "location_id": "BTC1"
      }
    }
  },
  {
    "id": "2829",
    "name": "Haringvlietsluizen sch 1",
    "lat": 51.83616700000008,
    "lon": 4.054385000000098,
    "x": 572647.08352493,
    "y": 5743342.08299768,
    "datasets": {
      "RWS_OFFICIAL": {
        "location_id": "HVS01"
      }
    }
  },
  {
    "id": "3525",
    "name": "Marknesse",
    "lat": 52.70192000000347,
    "lon": 5.88739000001271,
    "x": 695083.808717417,
    "y": 5843024.1699724,
    "datasets": {
      "RWS_OFFICIAL": {
        "location_id": "MARK"
      }
    }
  },
  {
    "id": "2418",
    "name": "Uithuizerwad",
    "lat": 53.46593800002661,
    "lon": 6.757432000043045,
    "x": 749387.579062717,
    "y": 5930678.90555067,
    "datasets": {
      "RWS_OFFICIAL": {
        "location_id": "UHWD"
      }
    }
  },
  {
    "id": "5838",
    "name": "Wijdenes",
    "lat": 52.632562000000334,
    "lon": 5.165346000003015,
    "x": 646538.674114683,
    "y": 5833598.51786221,
    "datasets": {
      "RWS_OFFICIAL": {
        "location_id": "WIJD"
      }
    }
  },
  {
    "id": "9810",
    "name": "Stroommeetpaal Eemshaven",
    "lat": 53.474390000030404,
    "lon": 6.821730000046831,
    "x": 753602.88269246,
    "y": 5931845.6170377,
    "datasets": {
      "RWS_OFFICIAL": {
        "location_id": "SPE"
      }
    }
  },
  {
    "id": "3153",
    "name": "Europlatform",
    "lat": 51.99780100000011,
    "lon": 3.275074999999995,
    "x": 518884.956435892,
    "y": 5760829.35541647,
    "datasets": {
      "RWS_OFFICIAL": {
        "location_id": "EPL"
      }
    }
  },
  {
    "id": "1641",
    "name": "Huibertgat",
    "lat": 53.57375000001183,
    "lon": 6.398433000025506,
    "x": 724996.335864394,
    "y": 5941470.2703589,
    "datasets": {
      "RWS_OFFICIAL": {
        "location_id": "HUIB"
      }
    }
  },
  {
    "id": "5367",
    "name": "Kats Zandkreeksluis",
    "lat": 51.543971000000084,
    "lon": 3.8652760000000286,
    "x": 560002.850035323,
    "y": 5710674.15809413,
    "datasets": {
      "RWS_OFFICIAL": {
        "location_id": "KATS"
      }
    }
  },
  {
    "id": "4037",
    "name": "Cadzand wind",
    "lat": 51.37989000000014,
    "lon": 3.379060000000014,
    "x": 526380.65436293,
    "y": 5692139.65195593,
    "datasets": {
      "RWS_OFFICIAL": {
        "location_id": "CAWI"
      }
    }
  },
  {
    "id": "3139",
    "name": "Hoek van Holland",
    "lat": 51.977574000000054,
    "lon": 4.119881000000123,
    "x": 576917.675576278,
    "y": 5759136.13463449,
    "datasets": {
      "RWS_OFFICIAL": {
        "location_id": "HOEK"
      }
    }
  },
  {
    "id": "4352",
    "name": "Lauwersoog",
    "lat": 53.40868700000741,
    "lon": 6.1969520000192375,
    "x": 712485.362427151,
    "y": 5922496.96218518,
    "datasets": {
      "RWS_OFFICIAL": {
        "location_id": "LAUW"
      }
    }
  },
  {
    "id": "8408",
    "name": "Terschelling Noordzee",
    "lat": 53.42794000000058,
    "lon": 5.333190000003958,
    "x": 655016.251709493,
    "y": 5922412.47580659,
    "datasets": {
      "RWS_OFFICIAL": {
        "location_id": "TERS"
      }
    }
  },
  {
    "id": "9796",
    "name": "Berkhout",
    "lat": 52.642670000000244,
    "lon": 4.97869000000192,
    "x": 633877.337865742,
    "y": 5834359.52893178,
    "datasets": {
      "RWS_OFFICIAL": {
        "location_id": "BERK"
      }
    }
  },
  {
    "id": "7952",
    "name": "Hoorn Terschelling",
    "lat": 53.39925800000059,
    "lon": 5.348649000004118,
    "x": 656148.235071909,
    "y": 5919256.10655467,
    "datasets": {
      "RWS_OFFICIAL": {
        "location_id": "HOTE"
      }
    }
  },
  {
    "id": "0099",
    "name": "Rotterdam Luchthaven",
    "lat": 51.94920600000009,
    "lon": 4.448724000000436,
    "x": 599565.677851071,
    "y": 5756380.10543935,
    "datasets": {
      "RWS_OFFICIAL": {
        "location_id": "ROT1"
      }
    }
  },
  {
    "id": "9460",
    "name": "Vlieland",
    "lat": 53.24925000000007,
    "lon": 4.915364000001512,
    "x": 627792.566605279,
    "y": 5901709.86707934,
    "datasets": {
      "RWS_OFFICIAL": {
        "location_id": "VLI1"
      }
    }
  },
  {
    "id": "0577",
    "name": "Lage Licht",
    "lat": 51.98139300000006,
    "lon": 4.081434000000092,
    "x": 574270.750149378,
    "y": 5759520.90939086,
    "datasets": {
      "RWS_OFFICIAL": {
        "location_id": "LGL1"
      }
    }
  },
  {
    "id": "2531",
    "name": "Rotterdamse hoek",
    "lat": 52.74831000000136,
    "lon": 5.559000000006875,
    "x": 672717.142704692,
    "y": 5847343.70995726,
    "datasets": {
      "RWS_OFFICIAL": {
        "location_id": "FL02"
      }
    }
  },
  {
    "id": "9099",
    "name": "Marker wadden",
    "lat": 52.600320000000785,
    "lon": 5.391229000004971,
    "x": 661941.941846159,
    "y": 5830496.19165586,
    "datasets": {
      "RWS_OFFICIAL": {
        "location_id": "MWAD"
      }
    }
  },
  {
    "id": "7117",
    "name": "Q1 platform",
    "lat": 52.92533499999996,
    "lon": 4.150361000000124,
    "x": 577332.855010984,
    "y": 5864584.14461751,
    "datasets": {
      "RWS_OFFICIAL": {
        "location_id": "Q1"
      }
    }
  },
  {
    "id": "9866",
    "name": "Platform Hoorn Q1-A",
    "lat": 52.92535269059845,
    "lon": 4.150285753428387,
    "x": 577327.765231775,
    "y": 5864586.03138184,
    "datasets": {
      "RWS_OFFICIAL": {
        "location_id": "Q1"
      }
    }
  },
  {
    "id": "5852",
    "name": "Borssele Alpha",
    "lat": 51.6999210000001,
    "lon": 3.056706999999991,
    "x": 503918.942357358,
    "y": 5727664.94973239,
    "datasets": {
      "RWS_OFFICIAL": {
        "location_id": "BSA"
      }
    }
  },
  {
    "id": "6943",
    "name": "K14 platform",
    "lat": 53.266670000000005,
    "lon": 3.633330000000016,
    "x": 542240.42600117,
    "y": 5902123.13674842,
    "datasets": {
      "RWS_OFFICIAL": {
        "location_id": "K14"
      }
    }
  },
  {
    "id": "6862",
    "name": "Grevelingensluis wind",
    "lat": 51.66661100000014,
    "lon": 4.095666000000117,
    "x": 575774.487899888,
    "y": 5724527.14821832,
    "datasets": {
      "RWS_OFFICIAL": {
        "location_id": "GRWI"
      }
    }
  },
  {
    "id": "4662",
    "name": "Zeelandbrug wind",
    "lat": 51.6286000000001,
    "lon": 3.9177850000000363,
    "x": 563525.897877064,
    "y": 5720130.26737017,
    "datasets": {
      "RWS_OFFICIAL": {
        "location_id": "ZBWI"
      }
    }
  },
  {
    "id": "8105",
    "name": "Houtribdijk",
    "lat": 52.648056000000835,
    "lon": 5.4005560000050465,
    "x": 662396.645469852,
    "y": 5835825.85858452,
    "datasets": {
      "RWS_OFFICIAL": {
        "location_id": "HOUD"
      }
    }
  },
  {
    "id": "0868",
    "name": "Lichteiland Goeree",
    "lat": 51.925745000000084,
    "lon": 3.6698740000000147,
    "x": 546063.014918327,
    "y": 5752991.39166245,
    "datasets": {
      "RWS_OFFICIAL": {
        "location_id": "LEG"
      }
    }
  },
  {
    "id": "2726",
    "name": "Nes",
    "lat": 53.42976610635023,
    "lon": 5.759447549385296,
    "x": 683322.924393449,
    "y": 5923626.81910113,
    "datasets": {
      "RWS_OFFICIAL": {
        "location_id": "NES"
      }
    }
  },
  {
    "id": "0906",
    "name": "Nes",
    "lat": 53.429970000002214,
    "lon": 5.7589400000091455,
    "x": 683288.335482817,
    "y": 5923648.18977766,
    "datasets": {
      "RWS_OFFICIAL": {
        "location_id": "NES"
      }
    }
  },
  {
    "id": "0890",
    "name": "IJgeul stroommeetpaal",
    "lat": 52.46373600000007,
    "lon": 4.517361000000503,
    "x": 603084.756918076,
    "y": 5813700.79688048,
    "datasets": {
      "RWS_OFFICIAL": {
        "location_id": "SPY"
      }
    }
  },
  {
    "id": "1843",
    "name": "Gannet platform 1",
    "lat": 57.185029999999784,
    "lon": 0.9999999999989315,
    "x": 379117.977891604,
    "y": 6339756.30889541,
    "datasets": {
      "RWS_OFFICIAL": {
        "location_id": "GAN1"
      }
    }
  },
  {
    "id": "3554",
    "name": "K13 Alpha",
    "lat": 53.21700999999997,
    "lon": 3.218931999999991,
    "x": 514618.822878979,
    "y": 5896433.91304204,
    "datasets": {
      "RWS_OFFICIAL": {
        "location_id": "K13"
      }
    }
  },
  {
    "id": "3695",
    "name": "IJmuiden Buitenhaven",
    "lat": 52.46232600000002,
    "lon": 4.554822000000572,
    "x": 605632.956827924,
    "y": 5813598.08945097,
    "datasets": {
      "RWS_OFFICIAL": {
        "location_id": "IJMH"
      }
    }
  },
  {
    "id": "7147",
    "name": "Vlissingen",
    "lat": 51.44296100000006,
    "lon": 3.59740000000002,
    "x": 541518.745919649,
    "y": 5699254.96425966,
    "datasets": {
      "RWS_OFFICIAL": {
        "location_id": "VLIS"
      }
    }
  },
  {
    "id": "4426",
    "name": "Vlakte v/d Raan",
    "lat": 51.5037190000001,
    "lon": 3.2420519999999953,
    "x": 516800.113958171,
    "y": 5705870.5430126,
    "datasets": {
      "RWS_OFFICIAL": {
        "location_id": "VR"
      }
    }
  },
  {
    "id": "7550",
    "name": "P11 platform",
    "lat": 52.35867000000004,
    "lon": 3.3415000000000004,
    "x": 523256.298159867,
    "y": 5800986.61235339,
    "datasets": {
      "RWS_OFFICIAL": {
        "location_id": "P11"
      }
    }
  },
  {
    "id": "3310",
    "name": "Schaar",
    "lat": 51.655880000000046,
    "lon": 3.693954000000001,
    "x": 548004.476484997,
    "y": 5722993.34058284,
    "datasets": {
      "RWS_OFFICIAL": {
        "location_id": "SCHA"
      }
    }
  },
  {
    "id": "3696",
    "name": "Texelhors",
    "lat": 53.00000000000005,
    "lon": 4.750000000000986,
    "x": 617438.130657321,
    "y": 5873703.05052095,
    "datasets": {
      "RWS_OFFICIAL": {
        "location_id": "TEHO"
      }
    }
  },
  {
    "id": "3885",
    "name": "Geulhaven Radarpost 10",
    "lat": 51.89181400000011,
    "lon": 4.31253100000026,
    "x": 590321.143000125,
    "y": 5749819.65457646,
    "datasets": {
      "RWS_OFFICIAL": {
        "location_id": "RP10"
      }
    }
  },
  {
    "id": "3884",
    "name": "De Kooy",
    "lat": 52.92350700000013,
    "lon": 4.786482000001105,
    "x": 620097.955026718,
    "y": 5865255.37773316,
    "datasets": {
      "RWS_OFFICIAL": {
        "location_id": "DEKO"
      }
    }
  },
  {
    "id": "0904",
    "name": "IJmuiden Zuid havenhoofd",
    "lat": 52.463693000000085,
    "lon": 4.5322830000005405,
    "x": 604098.550551581,
    "y": 5813717.41176161,
    "datasets": {
      "RWS_OFFICIAL": {
        "location_id": "IJZ1"
      }
    }
  }
]