<?xml version="1.0" encoding="UTF-8"?>
<kml xmlns="http://earth.google.com/kml/2.1"><Document><Placemark id="placemark114"><name>Stroommeetpaal Eemshaven</name><description>Bron: RWS&lt;br/&gt;&lt;br/&gt;&lt;br/&gt;&lt;br/&gt;</description><Point><coordinates>,</coordinates></Point></Placemark><Placemark id="placemark120"><name>Hoek van Holland</name><description>Bron: &lt;br/&gt;&lt;br/&gt;&lt;br/&gt;&lt;br/&gt;</description><Point><coordinates>,</coordinates></Point></Placemark><Placemark id="placemark119"><name>IJmuiden Buitenhaven</name><description>Bron: &lt;br/&gt;&lt;br/&gt;&lt;br/&gt;&lt;br/&gt;</description><Point><coordinates>,</coordinates></Point></Placemark><Placemark id="placemark40"><name>North Cormorant</name><description>Bron: RWS&lt;br/&gt;Grafieken&lt;br/&gt;&lt;br/&gt;GFS voorspelling&lt;br/&gt;</description><Point><coordinates>3.836840,65.155190</coordinates></Point></Placemark><Placemark id="placemark31"><name>A12 platform</name><description>Bron: RWS&lt;br/&gt;Grafieken&lt;br/&gt;&lt;br/&gt;GFS voorspelling&lt;br/&gt;</description><Point><coordinates>6.358700,59.155190</coordinates></Point></Placemark><Placemark id="placemark3"><name>D15 platform</name><description>Bron: RWS&lt;br/&gt;Grafieken&lt;br/&gt;&lt;br/&gt;GFS voorspelling&lt;br/&gt;</description><Point><coordinates>5.304670,58.155190</coordinates></Point></Placemark><Placemark id="placemark17"><name>F16 platform</name><description>Bron: RWS&lt;br/&gt;Grafieken&lt;br/&gt;&lt;br/&gt;GFS voorspelling&lt;br/&gt;</description><Point><coordinates>6.499880,58.155190</coordinates></Point></Placemark><Placemark id="placemark6"><name>F3 platform</name><description>Bron: RWS&lt;br/&gt;Grafieken&lt;br/&gt;&lt;br/&gt;GFS voorspelling&lt;br/&gt;</description><Point><coordinates>7.293780,58.155190</coordinates></Point></Placemark><Placemark id="placemark33"><name>J6 platform</name><description>Bron: RWS&lt;br/&gt;Grafieken&lt;br/&gt;&lt;br/&gt;GFS voorspelling&lt;br/&gt;</description><Point><coordinates>5.293430,57.155190</coordinates></Point></Placemark><Placemark id="placemark46"><name>A12_CPP</name><description>Bron: KNMI&lt;br/&gt;&lt;br/&gt;&lt;br/&gt;GFS voorspelling&lt;br/&gt;</description><Point><coordinates>3.810278,55.399167</coordinates></Point></Placemark><Placemark id="placemark105"><name>A12-CPP</name><description>Bron: KNMI&lt;br/&gt;&lt;br/&gt;&lt;br/&gt;&lt;br/&gt;</description><Point><coordinates>3.810278,55.399167</coordinates></Point></Placemark><Placemark id="placemark112"><name>F3-FB-1</name><description>Bron: KNMI&lt;br/&gt;&lt;br/&gt;&lt;br/&gt;&lt;br/&gt;</description><Point><coordinates>4.696111,54.853889</coordinates></Point></Placemark><Placemark id="placemark54"><name>F3_FB_1</name><description>Bron: KNMI&lt;br/&gt;&lt;br/&gt;&lt;br/&gt;GFS voorspelling&lt;br/&gt;</description><Point><coordinates>4.696111,54.853889</coordinates></Point></Placemark><Placemark id="placemark43"><name>D15_FA_1</name><description>Bron: KNMI&lt;br/&gt;&lt;br/&gt;&lt;br/&gt;GFS voorspelling&lt;br/&gt;</description><Point><coordinates>2.935750,54.325667</coordinates></Point></Placemark><Placemark id="placemark102"><name>D15-FA-1</name><description>Bron: KNMI&lt;br/&gt;&lt;br/&gt;&lt;br/&gt;&lt;br/&gt;</description><Point><coordinates>2.935750,54.325667</coordinates></Point></Placemark><Placemark id="placemark106"><name>F16-A</name><description>Bron: KNMI&lt;br/&gt;&lt;br/&gt;&lt;br/&gt;&lt;br/&gt;</description><Point><coordinates>4.012222,54.116667</coordinates></Point></Placemark><Placemark id="placemark47"><name>F16_A</name><description>Bron: KNMI&lt;br/&gt;&lt;br/&gt;&lt;br/&gt;GFS voorspelling&lt;br/&gt;</description><Point><coordinates>4.012222,54.116667</coordinates></Point></Placemark><Placemark id="placemark111"><name>BUITENGAATS/BG-OHVS2</name><description>Bron: KNMI&lt;br/&gt;&lt;br/&gt;&lt;br/&gt;&lt;br/&gt;</description><Point><coordinates>6.041670,54.036940</coordinates></Point></Placemark><Placemark id="placemark90"><name>BUITENGAATS/BG_OHVS2</name><description>Bron: KNMI&lt;br/&gt;&lt;br/&gt;&lt;br/&gt;GFS voorspelling&lt;br/&gt;</description><Point><coordinates>6.041670,54.036940</coordinates></Point></Placemark><Placemark id="placemark50"><name>J6_A</name><description>Bron: KNMI&lt;br/&gt;&lt;br/&gt;&lt;br/&gt;GFS voorspelling&lt;br/&gt;</description><Point><coordinates>2.945278,53.824131</coordinates></Point></Placemark><Placemark id="placemark109"><name>J6-A</name><description>Bron: KNMI&lt;br/&gt;&lt;br/&gt;&lt;br/&gt;&lt;br/&gt;</description><Point><coordinates>2.945278,53.824131</coordinates></Point></Placemark><Placemark id="placemark48"><name>L9_FF_1</name><description>Bron: KNMI&lt;br/&gt;&lt;br/&gt;&lt;br/&gt;GFS voorspelling&lt;br/&gt;</description><Point><coordinates>4.960278,53.614444</coordinates></Point></Placemark><Placemark id="placemark107"><name>L9-FF-1</name><description>Bron: KNMI&lt;br/&gt;&lt;br/&gt;&lt;br/&gt;&lt;br/&gt;</description><Point><coordinates>4.960278,53.614444</coordinates></Point></Placemark><Placemark id="placemark8"><name>Huibertgat</name><description>Bron: RWS&lt;br/&gt;Grafieken&lt;br/&gt;&lt;br/&gt;GFS voorspelling&lt;br/&gt;</description><Point><coordinates>6.398436,53.573752</coordinates></Point></Placemark><Placemark id="placemark39"><name>Wierumergronden</name><description>Bron: RWS&lt;br/&gt;Grafieken&lt;br/&gt;Harmonie voorspelling&lt;br/&gt;GFS voorspelling&lt;br/&gt;</description><Point><coordinates>5.958263,53.515829</coordinates></Point></Placemark><Placemark id="placemark16"><name>Emshorn</name><description>Bron: RWS&lt;br/&gt;Grafieken&lt;br/&gt;&lt;br/&gt;GFS voorspelling&lt;br/&gt;</description><Point><coordinates>6.840952,53.492351</coordinates></Point></Placemark><Placemark id="placemark49"><name>AWG_1</name><description>Bron: KNMI&lt;br/&gt;&lt;br/&gt;&lt;br/&gt;GFS voorspelling&lt;br/&gt;</description><Point><coordinates>5.941667,53.491667</coordinates></Point></Placemark><Placemark id="placemark108"><name>AWG-1</name><description>Bron: KNMI&lt;br/&gt;&lt;br/&gt;&lt;br/&gt;&lt;br/&gt;</description><Point><coordinates>5.941667,53.491667</coordinates></Point></Placemark><Placemark id="placemark37"><name>Eemshaven</name><description>Bron: RWS&lt;br/&gt;Grafieken&lt;br/&gt;&lt;br/&gt;GFS voorspelling&lt;br/&gt;</description><Point><coordinates>6.821727,53.474394</coordinates></Point></Placemark><Placemark id="placemark13"><name>Uithuizerwad</name><description>Bron: RWS&lt;br/&gt;Grafieken&lt;br/&gt;Harmonie voorspelling&lt;br/&gt;GFS voorspelling&lt;br/&gt;</description><Point><coordinates>6.757429,53.465940</coordinates></Point></Placemark><Placemark id="placemark36"><name>Nes</name><description>Bron: RWS&lt;br/&gt;Grafieken&lt;br/&gt;Harmonie voorspelling&lt;br/&gt;GFS voorspelling&lt;br/&gt;</description><Point><coordinates>5.758941,53.429976</coordinates></Point></Placemark><Placemark id="placemark25"><name>Terschelling Noordzee</name><description>Bron: RWS&lt;br/&gt;Grafieken&lt;br/&gt;Harmonie voorspelling&lt;br/&gt;GFS voorspelling&lt;br/&gt;GEFS voorspelling (kalender)</description><Point><coordinates>5.333190,53.427942</coordinates></Point></Placemark><Placemark id="placemark68"><name>LAUWERSOOG AWS</name><description>Bron: KNMI&lt;br/&gt;&lt;br/&gt;&lt;br/&gt;GFS voorspelling&lt;br/&gt;</description><Point><coordinates>6.199099,53.411581</coordinates></Point></Placemark><Placemark id="placemark26"><name>Wierummerwad</name><description>Bron: RWS&lt;br/&gt;Grafieken&lt;br/&gt;&lt;br/&gt;GFS voorspelling&lt;br/&gt;</description><Point><coordinates>6.063998,53.407964</coordinates></Point></Placemark><Placemark id="placemark59"><name>TERSCHELLING HOORN AWS</name><description>Bron: KNMI&lt;br/&gt;&lt;br/&gt;&lt;br/&gt;GFS voorspelling&lt;br/&gt;</description><Point><coordinates>5.345801,53.391266</coordinates></Point></Placemark><Placemark id="placemark4"><name>Dantziggat</name><description>Bron: RWS&lt;br/&gt;Grafieken&lt;br/&gt;&lt;br/&gt;GFS voorspelling&lt;br/&gt;</description><Point><coordinates>5.772008,53.378963</coordinates></Point></Placemark><Placemark id="placemark21"><name>Noorder Balgen</name><description>Bron: RWS&lt;br/&gt;Grafieken&lt;br/&gt;Harmonie voorspelling&lt;br/&gt;GFS voorspelling&lt;br/&gt;GEFS voorspelling (kalender)</description><Point><coordinates>5.384852,53.365742</coordinates></Point></Placemark><Placemark id="placemark104"><name>K14-FA-1C</name><description>Bron: KNMI&lt;br/&gt;&lt;br/&gt;&lt;br/&gt;&lt;br/&gt;</description><Point><coordinates>3.627778,53.269444</coordinates></Point></Placemark><Placemark id="placemark45"><name>K14_FA_1C</name><description>Bron: KNMI&lt;br/&gt;&lt;br/&gt;&lt;br/&gt;GFS voorspelling&lt;br/&gt;</description><Point><coordinates>3.627778,53.269444</coordinates></Point></Placemark><Placemark id="placemark56"><name>VLIELAND</name><description>Bron: KNMI&lt;br/&gt;Grafieken&lt;br/&gt;Harmonie voorspelling&lt;br/&gt;GFS voorspelling&lt;br/&gt;GEFS voorspelling (kalender)</description><Point><coordinates>4.920791,53.240027</coordinates></Point></Placemark><Placemark id="placemark65"><name>LEEUWARDEN</name><description>Bron: KNMI&lt;br/&gt;&lt;br/&gt;&lt;br/&gt;GFS voorspelling&lt;br/&gt;</description><Point><coordinates>5.751574,53.223000</coordinates></Point></Placemark><Placemark id="placemark11"><name>K13 Alpha</name><description>Bron: RWS&lt;br/&gt;Grafieken&lt;br/&gt;Harmonie voorspelling&lt;br/&gt;GFS voorspelling&lt;br/&gt;</description><Point><coordinates>3.218934,53.217012</coordinates></Point></Placemark><Placemark id="placemark73"><name>NIEUW BEERTA AWS</name><description>Bron: KNMI&lt;br/&gt;&lt;br/&gt;&lt;br/&gt;GFS voorspelling&lt;br/&gt;</description><Point><coordinates>7.149322,53.194410</coordinates></Point></Placemark><Placemark id="placemark71"><name>GRONINGEN AP EELDE</name><description>Bron: KNMI&lt;br/&gt;&lt;br/&gt;&lt;br/&gt;GFS voorspelling&lt;br/&gt;</description><Point><coordinates>6.584847,53.123676</coordinates></Point></Placemark><Placemark id="placemark93"><name>TEXELHORS WP</name><description>Bron: KNMI&lt;br/&gt;Grafieken&lt;br/&gt;Harmonie voorspelling&lt;br/&gt;&lt;br/&gt;GEFS voorspelling (kalender)</description><Point><coordinates>4.719876,52.995016</coordinates></Point></Placemark><Placemark id="placemark53"><name>DE KOOIJ VK</name><description>Bron: KNMI&lt;br/&gt;&lt;br/&gt;&lt;br/&gt;GFS voorspelling&lt;br/&gt;</description><Point><coordinates>4.781145,52.926865</coordinates></Point></Placemark><Placemark id="placemark94"><name>DE KOOY VK</name><description>Bron: KNMI&lt;br/&gt;&lt;br/&gt;&lt;br/&gt;&lt;br/&gt;</description><Point><coordinates>4.781145,52.926865</coordinates></Point></Placemark><Placemark id="placemark29"><name>Q1 platform</name><description>Bron: RWS&lt;br/&gt;Grafieken&lt;br/&gt;Harmonie voorspelling&lt;br/&gt;GFS voorspelling&lt;br/&gt;GEFS voorspelling (kalender)</description><Point><coordinates>4.150363,52.925338</coordinates></Point></Placemark><Placemark id="placemark110"><name>HOORN-A</name><description>Bron: KNMI&lt;br/&gt;&lt;br/&gt;&lt;br/&gt;&lt;br/&gt;</description><Point><coordinates>4.150278,52.918056</coordinates></Point></Placemark><Placemark id="placemark89"><name>HOORN_A</name><description>Bron: KNMI&lt;br/&gt;Grafieken&lt;br/&gt;Harmonie voorspelling&lt;br/&gt;GFS voorspelling&lt;br/&gt;</description><Point><coordinates>4.150278,52.918056</coordinates></Point></Placemark><Placemark id="placemark63"><name>STAVOREN AWS</name><description>Bron: KNMI&lt;br/&gt;Grafieken&lt;br/&gt;Harmonie voorspelling&lt;br/&gt;GFS voorspelling&lt;br/&gt;GEFS voorspelling (kalender)</description><Point><coordinates>5.383479,52.896644</coordinates></Point></Placemark><Placemark id="placemark70"><name>HOOGEVEEN AWS</name><description>Bron: KNMI&lt;br/&gt;&lt;br/&gt;&lt;br/&gt;GFS voorspelling&lt;br/&gt;</description><Point><coordinates>6.572970,52.749056</coordinates></Point></Placemark><Placemark id="placemark66"><name>MARKNESSE AWS</name><description>Bron: KNMI&lt;br/&gt;&lt;br/&gt;&lt;br/&gt;GFS voorspelling&lt;br/&gt;</description><Point><coordinates>5.887446,52.701902</coordinates></Point></Placemark><Placemark id="placemark61"><name>HOUTRIBDIJK WP</name><description>Bron: KNMI&lt;br/&gt;Grafieken&lt;br/&gt;Harmonie voorspelling&lt;br/&gt;GFS voorspelling&lt;br/&gt;GEFS voorspelling (kalender)</description><Point><coordinates>5.400388,52.648187</coordinates></Point></Placemark><Placemark id="placemark58"><name>BERKHOUT AWS</name><description>Bron: KNMI&lt;br/&gt;Grafieken&lt;br/&gt;Harmonie voorspelling&lt;br/&gt;GFS voorspelling&lt;br/&gt;</description><Point><coordinates>4.978757,52.642697</coordinates></Point></Placemark><Placemark id="placemark57"><name>WIJDENES WP</name><description>Bron: KNMI&lt;br/&gt;Grafieken&lt;br/&gt;Harmonie voorspelling&lt;br/&gt;GFS voorspelling&lt;br/&gt;GEFS voorspelling (kalender)</description><Point><coordinates>5.173474,52.632431</coordinates></Point></Placemark><Placemark id="placemark60"><name>WIJK AAN ZEE AWS</name><description>Bron: KNMI&lt;br/&gt;&lt;br/&gt;&lt;br/&gt;GFS voorspelling&lt;br/&gt;</description><Point><coordinates>4.602930,52.505334</coordinates></Point></Placemark><Placemark id="placemark100"><name>Lierveld Paraglidingschool Inferno</name><description>Bron: WOW&lt;br/&gt;Grafieken&lt;br/&gt;Harmonie voorspelling&lt;br/&gt;GFS voorspelling&lt;br/&gt;GEFS voorspelling (kalender)</description><Point><coordinates>6.646500,52.497300</coordinates></Point></Placemark><Placemark id="placemark30"><name>IJgeul stroommeetpaal</name><description>Bron: RWS&lt;br/&gt;Grafieken&lt;br/&gt;Harmonie voorspelling&lt;br/&gt;GFS voorspelling&lt;br/&gt;GEFS voorspelling (kalender)</description><Point><coordinates>4.517364,52.463739</coordinates></Point></Placemark><Placemark id="placemark10"><name>IJmuiden Zuid havenhoofd</name><description>Bron: RWS&lt;br/&gt;Grafieken&lt;br/&gt;Harmonie voorspelling&lt;br/&gt;GFS voorspelling&lt;br/&gt;GEFS voorspelling (kalender)</description><Point><coordinates>4.532286,52.463695</coordinates></Point></Placemark><Placemark id="placemark52"><name>IJMUIDEN WP</name><description>Bron: KNMI&lt;br/&gt;Grafieken&lt;br/&gt;Harmonie voorspelling&lt;br/&gt;GFS voorspelling&lt;br/&gt;GEFS voorspelling (kalender)</description><Point><coordinates>4.554901,52.462243</coordinates></Point></Placemark><Placemark id="placemark64"><name>LELYSTAD AP</name><description>Bron: KNMI&lt;br/&gt;Grafieken&lt;br/&gt;Harmonie voorspelling&lt;br/&gt;GFS voorspelling&lt;br/&gt;GEFS voorspelling (kalender)</description><Point><coordinates>5.519632,52.457270</coordinates></Point></Placemark><Placemark id="placemark69"><name>HEINO AWS</name><description>Bron: KNMI&lt;br/&gt;&lt;br/&gt;&lt;br/&gt;GFS voorspelling&lt;br/&gt;</description><Point><coordinates>6.258977,52.434562</coordinates></Point></Placemark><Placemark id="placemark103"><name>P11-B</name><description>Bron: KNMI&lt;br/&gt;&lt;br/&gt;&lt;br/&gt;&lt;br/&gt;</description><Point><coordinates>3.341667,52.360000</coordinates></Point></Placemark><Placemark id="placemark44"><name>P11_B</name><description>Bron: KNMI&lt;br/&gt;&lt;br/&gt;&lt;br/&gt;GFS voorspelling&lt;br/&gt;</description><Point><coordinates>3.341667,52.360000</coordinates></Point></Placemark><Placemark id="placemark22"><name>P11 platform</name><description>Bron: RWS&lt;br/&gt;Grafieken&lt;br/&gt;Harmonie voorspelling&lt;br/&gt;GFS voorspelling&lt;br/&gt;</description><Point><coordinates>3.341507,52.358675</coordinates></Point></Placemark><Placemark id="placemark55"><name>AMSTERDAM/SCHIPHOL AP</name><description>Bron: KNMI&lt;br/&gt;Grafieken&lt;br/&gt;Harmonie voorspelling&lt;br/&gt;GFS voorspelling&lt;br/&gt;GEFS voorspelling (kalender)</description><Point><coordinates>4.790223,52.315408</coordinates></Point></Placemark><Placemark id="placemark74"><name>TWENTE AWS</name><description>Bron: KNMI&lt;br/&gt;Grafieken&lt;br/&gt;Harmonie voorspelling&lt;br/&gt;GFS voorspelling&lt;br/&gt;GEFS voorspelling (kalender)</description><Point><coordinates>6.890875,52.273148</coordinates></Point></Placemark><Placemark id="placemark95"><name>TWENTHE AWS</name><description>Bron: KNMI&lt;br/&gt;Grafieken&lt;br/&gt;Harmonie voorspelling&lt;br/&gt;GFS voorspelling&lt;br/&gt;GEFS voorspelling (kalender)</description><Point><coordinates>6.890875,52.273148</coordinates></Point></Placemark><Placemark id="placemark116"><name>Plus 4 Paragliding</name><description>Bron: WOW&lt;br/&gt;Grafieken&lt;br/&gt;Harmonie voorspelling&lt;br/&gt;&lt;br/&gt;</description><Point><coordinates>6.708200,52.239600</coordinates></Point></Placemark><Placemark id="placemark91"><name>Katwijk Airtime</name><description>Bron: Airtime&lt;br/&gt;Grafieken&lt;br/&gt;Harmonie voorspelling&lt;br/&gt;GFS voorspelling&lt;br/&gt;GEFS voorspelling (kalender)</description><Point><coordinates>4.402033,52.215426</coordinates></Point></Placemark><Placemark id="placemark51"><name>VOORSCHOTEN AWS</name><description>Bron: KNMI&lt;br/&gt;&lt;br/&gt;&lt;br/&gt;GFS voorspelling&lt;br/&gt;</description><Point><coordinates>4.436389,52.139722</coordinates></Point></Placemark><Placemark id="placemark117"><name>Scheveningen Meteotoren</name><description>Bron: &lt;br/&gt;Grafieken&lt;br/&gt;Harmonie voorspelling&lt;br/&gt;GFS voorspelling&lt;br/&gt;GEFS voorspelling (kalender)</description><Point><coordinates>4.293300,52.118880</coordinates></Point></Placemark><Placemark id="placemark62"><name>DE BILT AWS</name><description>Bron: KNMI&lt;br/&gt;Grafieken&lt;br/&gt;Harmonie voorspelling&lt;br/&gt;GFS voorspelling&lt;br/&gt;GEFS voorspelling (kalender)</description><Point><coordinates>5.179706,52.098822</coordinates></Point></Placemark><Placemark id="placemark72"><name>HUPSEL AWS</name><description>Bron: KNMI&lt;br/&gt;&lt;br/&gt;&lt;br/&gt;GFS voorspelling&lt;br/&gt;</description><Point><coordinates>6.656725,52.067534</coordinates></Point></Placemark><Placemark id="placemark67"><name>DEELEN</name><description>Bron: KNMI&lt;br/&gt;Grafieken&lt;br/&gt;Harmonie voorspelling&lt;br/&gt;GFS voorspelling&lt;br/&gt;</description><Point><coordinates>5.872323,52.054862</coordinates></Point></Placemark><Placemark id="placemark5"><name>Europlatform</name><description>Bron: RWS&lt;br/&gt;Grafieken&lt;br/&gt;Harmonie voorspelling&lt;br/&gt;GFS voorspelling&lt;br/&gt;</description><Point><coordinates>3.275077,51.997805</coordinates></Point></Placemark><Placemark id="placemark77"><name>HOEK VAN HOLLAND AWS</name><description>Bron: KNMI&lt;br/&gt;&lt;br/&gt;&lt;br/&gt;GFS voorspelling&lt;br/&gt;</description><Point><coordinates>4.121850,51.990942</coordinates></Point></Placemark><Placemark id="placemark19"><name>Lage Licht</name><description>Bron: RWS&lt;br/&gt;Grafieken&lt;br/&gt;Harmonie voorspelling&lt;br/&gt;GFS voorspelling&lt;br/&gt;GEFS voorspelling (kalender)</description><Point><coordinates>4.077873,51.988092</coordinates></Point></Placemark><Placemark id="placemark101"><name>PaHo Lierterrein Schalkwijk</name><description>Bron: WOW&lt;br/&gt;Grafieken&lt;br/&gt;Harmonie voorspelling&lt;br/&gt;GFS voorspelling&lt;br/&gt;GEFS voorspelling (kalender)</description><Point><coordinates>5.173200,51.977800</coordinates></Point></Placemark><Placemark id="placemark81"><name>CABAUW TOWER AWS</name><description>Bron: KNMI&lt;br/&gt;&lt;br/&gt;&lt;br/&gt;GFS voorspelling&lt;br/&gt;</description><Point><coordinates>4.925922,51.969031</coordinates></Point></Placemark><Placemark id="placemark80"><name>ROTTERDAM THE HAGUE AP</name><description>Bron: KNMI&lt;br/&gt;Grafieken&lt;br/&gt;Harmonie voorspelling&lt;br/&gt;GFS voorspelling&lt;br/&gt;</description><Point><coordinates>4.446901,51.960667</coordinates></Point></Placemark><Placemark id="placemark20"><name>Maeslantkering geleidetor</name><description>Bron: RWS&lt;br/&gt;Grafieken&lt;br/&gt;&lt;br/&gt;GFS voorspelling&lt;br/&gt;</description><Point><coordinates>4.160048,51.954001</coordinates></Point></Placemark><Placemark id="placemark34"><name>Lichteiland Goeree</name><description>Bron: RWS&lt;br/&gt;Grafieken&lt;br/&gt;Harmonie voorspelling&lt;br/&gt;GFS voorspelling&lt;br/&gt;GEFS voorspelling (kalender)</description><Point><coordinates>3.669877,51.925748</coordinates></Point></Placemark><Placemark id="placemark118"><name>Maurik Paragliding</name><description>Bron: &lt;br/&gt;Grafieken&lt;br/&gt;Harmonie voorspelling&lt;br/&gt;&lt;br/&gt;</description><Point><coordinates>6.268800,51.913900</coordinates></Point></Placemark><Placemark id="placemark79"><name>ROTTERDAM GEULHAVEN</name><description>Bron: KNMI&lt;br/&gt;&lt;br/&gt;&lt;br/&gt;GFS voorspelling&lt;br/&gt;</description><Point><coordinates>4.312664,51.891831</coordinates></Point></Placemark><Placemark id="placemark83"><name>HERWIJNEN AWS</name><description>Bron: KNMI&lt;br/&gt;&lt;br/&gt;&lt;br/&gt;GFS voorspelling&lt;br/&gt;</description><Point><coordinates>5.145399,51.857594</coordinates></Point></Placemark><Placemark id="placemark9"><name>Haringvlietsluizen sch 1</name><description>Bron: RWS&lt;br/&gt;Grafieken&lt;br/&gt;Harmonie voorspelling&lt;br/&gt;GFS voorspelling&lt;br/&gt;GEFS voorspelling (kalender)</description><Point><coordinates>4.054387,51.836170</coordinates></Point></Placemark><Placemark id="placemark2"><name>Brouwershavense Gat 2</name><description>Bron: RWS&lt;br/&gt;Grafieken&lt;br/&gt;Harmonie voorspelling&lt;br/&gt;GFS voorspelling&lt;br/&gt;GEFS voorspelling (kalender)</description><Point><coordinates>3.621749,51.766529</coordinates></Point></Placemark><Placemark id="placemark18"><name>Grevelingensluis wind</name><description>Bron: RWS&lt;br/&gt;Grafieken&lt;br/&gt;Harmonie voorspelling&lt;br/&gt;GFS voorspelling&lt;br/&gt;GEFS voorspelling (kalender)</description><Point><coordinates>4.095667,51.666614</coordinates></Point></Placemark><Placemark id="placemark85"><name>VOLKEL</name><description>Bron: KNMI&lt;br/&gt;&lt;br/&gt;&lt;br/&gt;GFS voorspelling&lt;br/&gt;</description><Point><coordinates>5.706595,51.658528</coordinates></Point></Placemark><Placemark id="placemark28"><name>Oosterschelde 4</name><description>Bron: RWS&lt;br/&gt;Grafieken&lt;br/&gt;Harmonie voorspelling&lt;br/&gt;GFS voorspelling&lt;br/&gt;GEFS voorspelling (kalender)</description><Point><coordinates>3.693955,51.655883</coordinates></Point></Placemark><Placemark id="placemark27"><name>Zeelandbrug wind</name><description>Bron: RWS&lt;br/&gt;Grafieken&lt;br/&gt;Harmonie voorspelling&lt;br/&gt;GFS voorspelling&lt;br/&gt;</description><Point><coordinates>3.917786,51.628602</coordinates></Point></Placemark><Placemark id="placemark24"><name>Stavenisse</name><description>Bron: RWS&lt;br/&gt;Grafieken&lt;br/&gt;Harmonie voorspelling&lt;br/&gt;GFS voorspelling&lt;br/&gt;</description><Point><coordinates>4.006013,51.595409</coordinates></Point></Placemark><Placemark id="placemark82"><name>GILZE RIJEN</name><description>Bron: KNMI&lt;br/&gt;&lt;br/&gt;&lt;br/&gt;GFS voorspelling&lt;br/&gt;</description><Point><coordinates>4.935239,51.564889</coordinates></Point></Placemark><Placemark id="placemark12"><name>Kats Zandkreeksluis</name><description>Bron: RWS&lt;br/&gt;Grafieken&lt;br/&gt;&lt;br/&gt;GFS voorspelling&lt;br/&gt;</description><Point><coordinates>3.865276,51.543974</coordinates></Point></Placemark><Placemark id="placemark96"><name>WILHELMINADORP AWS</name><description>Bron: KNMI&lt;br/&gt;&lt;br/&gt;&lt;br/&gt;&lt;br/&gt;</description><Point><coordinates>3.883534,51.525957</coordinates></Point></Placemark><Placemark id="placemark1"><name>Bergsediepsluis wind</name><description>Bron: RWS&lt;br/&gt;Grafieken&lt;br/&gt;&lt;br/&gt;GFS voorspelling&lt;br/&gt;</description><Point><coordinates>4.173901,51.510199</coordinates></Point></Placemark><Placemark id="placemark14"><name>Vlakte v/d Raan</name><description>Bron: RWS&lt;br/&gt;Grafieken&lt;br/&gt;Harmonie voorspelling&lt;br/&gt;GFS voorspelling&lt;br/&gt;GEFS voorspelling (kalender)</description><Point><coordinates>3.242052,51.503721</coordinates></Point></Placemark><Placemark id="placemark88"><name>ARCEN AWS</name><description>Bron: KNMI&lt;br/&gt;&lt;br/&gt;&lt;br/&gt;GFS voorspelling&lt;br/&gt;</description><Point><coordinates>6.196107,51.497306</coordinates></Point></Placemark><Placemark id="placemark35"><name>Marollegat</name><description>Bron: RWS&lt;br/&gt;Grafieken&lt;br/&gt;&lt;br/&gt;GFS voorspelling&lt;br/&gt;</description><Point><coordinates>4.191960,51.479749</coordinates></Point></Placemark><Placemark id="placemark84"><name>EINDHOVEN AP</name><description>Bron: KNMI&lt;br/&gt;Grafieken&lt;br/&gt;Harmonie voorspelling&lt;br/&gt;GFS voorspelling&lt;br/&gt;GEFS voorspelling (kalender)</description><Point><coordinates>5.377004,51.449772</coordinates></Point></Placemark><Placemark id="placemark78"><name>WOENSDRECHT</name><description>Bron: KNMI&lt;br/&gt;&lt;br/&gt;&lt;br/&gt;GFS voorspelling&lt;br/&gt;</description><Point><coordinates>4.342014,51.447744</coordinates></Point></Placemark><Placemark id="placemark7"><name>Hansweert wind</name><description>Bron: RWS&lt;br/&gt;Grafieken&lt;br/&gt;&lt;br/&gt;GFS voorspelling&lt;br/&gt;</description><Point><coordinates>3.997518,51.445772</coordinates></Point></Placemark><Placemark id="placemark41"><name>Hansweert</name><description>Bron: RWS&lt;br/&gt;Grafieken&lt;br/&gt;&lt;br/&gt;GFS voorspelling&lt;br/&gt;</description><Point><coordinates>3.997449,51.445673</coordinates></Point></Placemark><Placemark id="placemark75"><name>VLISSINGEN AWS</name><description>Bron: KNMI&lt;br/&gt;Grafieken&lt;br/&gt;Harmonie voorspelling&lt;br/&gt;GFS voorspelling&lt;br/&gt;GEFS voorspelling (kalender)</description><Point><coordinates>3.595824,51.441334</coordinates></Point></Placemark><Placemark id="placemark15"><name>Cadzand wind</name><description>Bron: RWS&lt;br/&gt;Grafieken&lt;br/&gt;Harmonie voorspelling&lt;br/&gt;GFS voorspelling&lt;br/&gt;GEFS voorspelling (kalender)</description><Point><coordinates>3.379067,51.379888</coordinates></Point></Placemark><Placemark id="placemark42"><name>Cadzand</name><description>Bron: RWS&lt;br/&gt;Grafieken&lt;br/&gt;Harmonie voorspelling&lt;br/&gt;GFS voorspelling&lt;br/&gt;GEFS voorspelling (kalender)</description><Point><coordinates>3.379067,51.379888</coordinates></Point></Placemark><Placemark id="placemark32"><name>Hoofdplaat</name><description>Bron: RWS&lt;br/&gt;Grafieken&lt;br/&gt;&lt;br/&gt;GFS voorspelling&lt;br/&gt;</description><Point><coordinates>3.672276,51.378521</coordinates></Point></Placemark><Placemark id="placemark115"><name>Action Paragliding Sterksel</name><description>Bron: WOW&lt;br/&gt;Grafieken&lt;br/&gt;Harmonie voorspelling&lt;br/&gt;GFS voorspelling&lt;br/&gt;</description><Point><coordinates>5.642600,51.350100</coordinates></Point></Placemark><Placemark id="placemark23"><name>Prosperpolder</name><description>Bron: RWS&lt;br/&gt;Grafieken&lt;br/&gt;&lt;br/&gt;GFS voorspelling&lt;br/&gt;</description><Point><coordinates>4.237933,51.348380</coordinates></Point></Placemark><Placemark id="placemark38"><name>Terneuzen Westsluis</name><description>Bron: RWS&lt;br/&gt;Grafieken&lt;br/&gt;&lt;br/&gt;GFS voorspelling&lt;br/&gt;</description><Point><coordinates>3.816215,51.327787</coordinates></Point></Placemark><Placemark id="placemark76"><name>WESTDORPE AWS</name><description>Bron: KNMI&lt;br/&gt;&lt;br/&gt;&lt;br/&gt;GFS voorspelling&lt;br/&gt;</description><Point><coordinates>3.860966,51.224758</coordinates></Point></Placemark><Placemark id="placemark86"><name>ELL AWS</name><description>Bron: KNMI&lt;br/&gt;&lt;br/&gt;&lt;br/&gt;GFS voorspelling&lt;br/&gt;</description><Point><coordinates>5.762545,51.196700</coordinates></Point></Placemark><Placemark id="placemark87"><name>MAASTRICHT AACHEN AP</name><description>Bron: KNMI&lt;br/&gt;&lt;br/&gt;&lt;br/&gt;GFS voorspelling&lt;br/&gt;</description><Point><coordinates>5.761783,50.905256</coordinates></Point></Placemark><Placemark id="placemark97"><name>JUANCHO E. YRAUSQUIN AIRPORT  SABA</name><description>Bron: KNMI&lt;br/&gt;&lt;br/&gt;&lt;br/&gt;&lt;br/&gt;</description><Point><coordinates>-63.220833,17.646111</coordinates></Point></Placemark><Placemark id="placemark98"><name>F.D. ROOSEVELT AIRPORT ST. EUSTATIUS</name><description>Bron: KNMI&lt;br/&gt;&lt;br/&gt;&lt;br/&gt;&lt;br/&gt;</description><Point><coordinates>-62.982778,17.495556</coordinates></Point></Placemark><Placemark id="placemark99"><name>FLAMINGO AIRPORT BONAIRE</name><description>Bron: KNMI&lt;br/&gt;&lt;br/&gt;&lt;br/&gt;&lt;br/&gt;</description><Point><coordinates>-68.275833,12.130000</coordinates></Point></Placemark></Document></kml>
